City_ID,City,Lat,Lng,Max Temp,Humidity,Cloudiness,Wind Speed,Country,Date
0,grytviken,-54.2811,-36.5092,34.88,99,99,5.61,GS,1685056055
1,new norfolk,-42.7826,147.0587,49.71,78,92,8.25,AU,1685056198
2,robertsport,6.7533,-11.3686,78.8,88,97,5.39,LR,1685056286
3,luena,-11.7833,19.9167,62.22,64,17,3.4,AO,1685056480
4,paveh,35.0434,46.3565,60.13,68,92,6.33,IR,1685056445
5,nuuk,64.1835,-51.7216,32.88,74,64,11.99,GL,1685056232
6,abalak,58.1286,68.5944,48.9,81,0,3.02,RU,1685056481
7,edinburgh of the seven seas,-37.0676,-12.3116,61.25,81,50,25.9,SH,1685056186
8,west island,-12.1568,96.8225,80.58,78,40,10.36,CC,1685056188
9,las khorey,11.1595,48.1967,86.0,75,59,5.88,SO,1685056481
10,avarua,-21.2078,-159.775,77.05,88,15,8.05,CK,1685056084
11,georgetown,5.4112,100.3354,82.33,83,20,2.3,MY,1685055942
12,albany,42.6001,-73.9662,63.05,46,36,8.9,US,1685055943
13,al jawf,29.5,38.75,73.72,27,0,10.98,SA,1685056482
14,san patricio,28.017,-97.5169,88.16,62,79,12.5,US,1685056046
15,kodiak,57.79,-152.4072,49.51,57,100,8.05,US,1685056207
16,at taj,24.2049,23.2857,87.04,12,99,5.97,LY,1685056189
17,goksun,38.021,36.4973,51.85,84,37,3.83,TR,1685056483
18,port-aux-francais,-49.35,70.2167,41.68,99,99,19.06,TF,1685056173
19,adamstown,-25.066,-130.1015,74.14,68,46,5.61,PN,1685056174
20,arraial do cabo,-22.9661,-42.0278,72.97,86,0,14.88,BR,1685056061
21,anadyr,64.75,177.4833,32.5,93,75,6.71,RU,1685056209
22,bredasdorp,-34.5322,20.0403,48.94,83,52,10.16,ZA,1685056211
23,ilulissat,69.2167,-51.1,35.62,55,0,1.14,GL,1685056075
24,alice springs,-23.7,133.8833,49.55,71,14,9.22,AU,1685056063
25,claveria,18.6074,121.0832,80.87,84,17,10.22,PH,1685056484
26,onega,63.9061,38.1404,46.62,96,80,7.74,RU,1685056284
27,blackmans bay,-43.0167,147.3167,48.52,74,71,10.07,AU,1685056171
28,ust-nera,64.5667,143.2,40.42,60,39,4.18,RU,1685056080
29,waitangi,-43.9535,-176.5597,58.82,81,6,4.0,NZ,1685056132
30,vilyuchinsk,52.9306,158.4028,52.07,78,88,3.58,RU,1685056082
31,muradnagar,28.7833,77.5,73.49,50,61,8.12,IN,1685056485
32,puerto ayora,-0.7393,-90.3518,79.56,90,31,8.01,EC,1685056064
33,vorkuta,67.5,64.0,56.73,75,98,9.6,RU,1685056485
34,bethel,41.3712,-73.414,66.51,47,0,9.22,US,1685055881
35,longyearbyen,78.2186,15.6401,31.84,93,100,23.02,SJ,1685056212
36,coquimbo,-29.9533,-71.3436,58.73,94,75,3.44,CL,1685056143
37,copala,16.65,-98.9833,86.65,60,4,10.25,MX,1685056491
38,ushuaia,-54.8,-68.3,33.46,80,20,8.05,AR,1685056200
39,oroqen zizhiqi,50.5667,123.7167,51.96,87,97,10.38,CN,1685056491
40,hami,42.8,93.45,69.62,23,100,5.37,CN,1685056492
41,kapuskasing,49.4169,-82.4331,61.27,40,61,2.42,CA,1685056245
42,ibirama,-27.0569,-49.5178,69.67,99,13,3.24,BR,1685056492
43,margaret river,-33.95,115.0667,46.36,80,0,7.31,AU,1685056170
44,hirara,24.8,125.2833,79.07,78,20,8.05,JP,1685056492
45,stanley,54.868,-1.6985,53.89,86,0,3.44,GB,1685056169
46,port mathurin,-19.6833,63.4167,77.47,76,13,13.13,MU,1685056036
47,ghormach,35.7306,63.7826,67.77,18,0,6.62,AF,1685056493
48,severo-yeniseyskiy,60.3725,93.0408,32.38,85,37,5.48,RU,1685056114
49,bel ombre,-4.6167,55.4167,81.5,70,2,14.16,SC,1685056217
50,arno,60.1167,18.6333,48.78,64,77,13.62,SE,1685056230
51,papatowai,-46.5619,169.4708,57.67,63,100,12.35,NZ,1685056187
52,lebu,-37.6167,-73.65,54.05,86,69,18.7,CL,1685056291
53,lerwick,60.1545,-1.1494,48.2,84,25,17.47,GB,1685056317
54,tiksi,71.6872,128.8694,30.45,81,100,8.79,RU,1685056048
55,san juan de miraflores,-12.1629,-76.9635,74.17,71,72,9.73,PE,1685056494
56,woolgoolga,-30.1106,153.2007,60.67,45,100,9.91,AU,1685056494
57,mananjary,-21.2167,48.3333,66.6,89,70,4.56,MG,1685056494
58,yamba,-5.9,22.3,73.98,70,35,1.36,CD,1685056495
59,badger,64.8,-147.5333,73.0,32,75,3.44,US,1685056175
60,tosontsengel,48.7567,98.2839,33.73,38,62,2.55,MN,1685056495
61,bereznik,62.8551,42.7072,56.97,96,100,3.24,RU,1685056495
62,puerto natales,-51.7236,-72.4875,33.85,89,96,5.55,CL,1685056169
63,lihue,21.9789,-159.3672,81.64,74,75,11.5,US,1685056189
64,hamilton,39.1834,-84.5333,70.65,32,0,16.11,US,1685055940
65,pandan,14.0453,124.1694,82.76,80,100,7.72,PH,1685056236
66,quellon,-43.1167,-73.6167,39.45,93,75,3.44,CL,1685056322
67,brady,31.1352,-99.3351,80.53,57,0,5.75,US,1685056496
68,brejo,-3.6844,-42.7503,76.68,83,57,4.52,BR,1685056496
69,saipan,15.1355,145.701,83.1,100,100,20.0,MP,1685056196
70,taoudenni,22.6783,-3.9836,89.4,19,84,9.26,ML,1685056326
71,kruisfontein,-34.0033,24.7314,53.89,81,100,22.3,ZA,1685056173
72,ribeira grande,38.5167,-28.7,62.78,82,54,11.01,PT,1685056169
73,joshimath,30.5667,79.5667,52.61,69,34,5.73,IN,1685056497
74,talnakh,69.4865,88.3972,34.21,95,91,8.01,RU,1685056233
75,arklow,52.7931,-6.1414,52.03,90,6,5.68,IE,1685056497
76,sretensk,52.2453,117.7093,44.82,72,46,9.57,RU,1685056498
77,punta arenas,-53.15,-70.9167,37.11,87,75,11.5,CL,1685056065
78,changuinola,9.4333,-82.5167,81.5,84,93,2.08,PA,1685056498
79,invercargill,-46.4,168.35,56.88,73,100,12.82,NZ,1685056141
80,iqaluit,63.7506,-68.5145,35.33,74,75,10.36,CA,1685055902
81,nar'yan-mar,67.6713,53.087,59.31,90,73,13.89,RU,1685056169
82,rongelap,11.1635,166.8941,82.15,78,100,19.3,MH,1685056129
83,inarajan village,13.2736,144.7484,81.84,88,100,15.37,GU,1685056499
84,bilibino,68.0546,166.4372,47.17,49,99,1.41,RU,1685056185
85,saint-philippe,-21.3585,55.7679,71.19,85,100,12.46,RE,1685056070
86,sassandra,4.95,-6.0833,79.3,89,95,6.04,CI,1685056499
87,nova sintra,14.8667,-24.7167,69.33,83,96,15.86,CV,1685056154
88,mossel bay,-34.1831,22.146,49.93,73,72,20.67,ZA,1685056300
89,toamasina,-18.1667,49.3833,71.65,83,91,11.74,MG,1685056505
90,shimoda,34.6667,138.95,71.1,64,61,4.41,JP,1685056505
91,wewak,-3.5534,143.6268,80.22,78,93,3.91,PG,1685056290
92,murray,40.6669,-111.888,76.01,37,75,10.36,US,1685056247
93,mohr,54.3528,9.7167,46.54,81,0,8.05,DE,1685056506
94,mount pearl,47.5166,-52.7813,39.85,93,100,8.05,CA,1685056025
95,klaksvik,62.2266,-6.589,47.32,84,35,22.82,FO,1685056506
96,machico,32.7,-16.7667,65.03,81,20,3.44,PT,1685056506
97,zaozersk,69.4005,32.4476,46.67,46,52,11.92,RU,1685056252
98,alofi,-19.0595,-169.9187,73.29,88,100,8.05,NU,1685056174
99,brasileia,-11.0161,-68.7481,81.05,83,20,3.44,BR,1685056507
100,sultanah,24.4926,39.5857,79.25,41,0,4.61,SA,1685056507
101,wailua homesteads,22.0669,-159.378,81.03,74,75,11.5,US,1685056182
102,port elizabeth,-33.918,25.5701,56.1,83,82,18.99,ZA,1685056177
103,mejit,10.2753,170.8646,81.95,79,100,20.33,MH,1685056508
104,slavuta,50.3016,26.8651,58.55,79,68,5.32,UA,1685056508
105,luderitz,-26.6481,15.1594,53.28,83,0,9.44,NA,1685056508
106,kragujevac,44.0167,20.9167,59.29,97,100,3.8,RS,1685056509
107,isafjordur,66.0755,-23.124,40.55,73,95,5.88,IS,1685056181
108,olonkinbyen,70.9221,-8.7187,31.03,68,37,22.64,SJ,1685056198
109,coxen hole,16.3244,-86.5366,87.08,62,0,7.38,HN,1685056509
110,hawaiian paradise park,19.5933,-154.9731,80.11,77,40,16.11,US,1685056174
111,vicuna,-30.0319,-70.7081,64.78,58,85,2.01,CL,1685056509
112,colonia,50.9333,6.95,54.97,80,0,3.44,DE,1685056117
113,kirakira,-10.4544,161.9205,77.83,89,100,5.64,SB,1685056510
114,dalton,34.7698,-84.9702,80.28,51,100,4.61,US,1685056388
115,mirny,62.5353,113.9611,41.23,65,99,8.99,RU,1685056510
116,itapirapua,-15.8233,-50.6133,75.67,44,16,4.74,BR,1685056510
117,yellowknife,62.456,-114.3525,57.56,54,74,8.99,CA,1685056061
118,calama,-22.4667,-68.9333,59.49,23,40,16.11,CL,1685056031
119,ambovombe,-25.1667,46.0833,66.07,75,1,11.41,MG,1685056511
120,sao paulo de olivenca,-3.3783,-68.8725,75.27,97,62,0.47,BR,1685056511
121,isla vista,34.4133,-119.861,71.91,69,100,10.36,US,1685056331
122,cova figueira,14.8905,-24.2934,69.91,84,96,11.39,CV,1685056511
123,chapeco,-27.0964,-52.6183,67.75,77,0,3.44,BR,1685056512
124,tommot,58.9564,126.2925,49.62,57,63,5.95,RU,1685056512
125,malpica,43.3228,-8.8105,57.97,67,1,19.42,ES,1685056512
126,utrik,11.2278,169.8474,82.27,80,100,19.17,MH,1685056189
127,swan hill,-35.3378,143.5544,47.25,73,0,11.03,AU,1685056512
128,sao joao da barra,-21.6403,-41.0511,69.89,84,4,8.95,BR,1685056427
129,carnarvon,-24.8667,113.6333,66.4,55,100,18.16,AU,1685056276
130,gomez farias,23.05,-99.15,89.24,48,34,3.24,MX,1685056513
131,petropavlovsk-kamchatsky,53.0452,158.6483,50.59,66,40,4.47,RU,1685056065
132,pisco,-13.7,-76.2167,71.65,73,75,9.22,PE,1685056201
133,ga-kgapane,-23.6333,30.2167,60.69,68,55,2.21,ZA,1685056513
134,whitehorse,60.7161,-135.0538,59.31,47,100,24.16,CA,1685055916
135,sisimiut,66.9395,-53.6735,31.77,85,92,10.96,GL,1685056193
136,ulsteinvik,62.3432,5.8487,49.75,84,91,15.01,NO,1685056514
137,pangody,65.85,74.4859,46.56,63,100,12.53,RU,1685056218
138,bansdih,25.8833,84.2167,80.37,55,0,0.74,IN,1685056515
139,ruidoso,33.3317,-105.673,80.96,30,0,16.11,US,1685056291
140,chinde,26.8418,88.0763,59.05,84,64,3.18,NP,1685056515
141,jakobstad,63.6749,22.7026,45.03,64,54,1.01,FI,1685056515
142,dudinka,69.4058,86.1778,34.63,93,83,11.12,RU,1685056173
143,yung shue wan,22.2333,114.1167,81.82,90,6,1.01,HK,1685056212
144,mudgee,-32.5943,149.5871,54.63,71,54,6.13,AU,1685056516
145,stony plain,53.5334,-114.0021,66.85,43,20,6.91,CA,1685056506
146,port alfred,-33.5906,26.891,54.18,91,82,8.01,ZA,1685056220
147,hermanus,-34.4187,19.2345,49.8,66,29,13.94,ZA,1685056185
148,kyakhta,50.3508,106.4494,40.59,62,7,3.94,RU,1685056516
149,itacare,-14.2775,-38.9967,74.73,88,31,9.78,BR,1685056516
150,nyeri,-0.4201,36.9476,58.17,94,89,4.68,KE,1685056517
151,mount isa,-20.7333,139.5,67.77,32,0,17.27,AU,1685056201
152,haiku-pauwela,20.9219,-156.3051,79.16,70,75,18.41,US,1685056125
153,nieuw nickerie,5.95,-56.9833,79.65,89,79,6.96,SR,1685056517
154,khromtau,50.2503,58.4347,62.15,38,6,7.49,KZ,1685056518
155,kamina,-8.7386,24.9906,66.7,64,5,2.86,CD,1685056518
156,atafu village,-8.5421,-172.5159,83.5,73,32,9.46,TK,1685056184
157,chonchi,-42.6128,-73.8092,40.21,88,96,2.06,CL,1685056196
158,ma'ili,21.4219,-158.1803,84.22,53,75,11.5,US,1685056518
159,anqing,30.5092,117.0506,72.95,89,100,2.91,CN,1685056519
160,vila franca do campo,37.7167,-25.4333,63.01,85,25,6.82,PT,1685056519
161,ujae,8.9322,165.7642,81.41,81,100,19.01,MH,1685056519
162,weno,7.4515,151.8468,83.19,75,93,8.61,FM,1685056320
163,moultonborough,43.7548,-71.3967,58.78,54,35,7.0,US,1685056520
164,la foa,-21.7108,165.8276,71.94,50,0,2.15,NC,1685056222
165,klyuchi,52.2667,79.1667,55.4,41,100,8.59,RU,1685056187
166,ishigaki,24.3448,124.1572,80.73,78,40,9.22,JP,1685056520
167,skovorodino,53.9833,123.9167,48.42,83,100,7.2,RU,1685056520
168,micheweni,-4.9667,39.8333,77.45,80,35,9.93,TZ,1685056521
169,qaqortoq,60.7167,-46.0333,33.26,100,100,0.74,GL,1685056521
170,guiuan,11.0333,125.7247,82.58,75,90,6.85,PH,1685056521
171,alesund,62.4723,6.1549,49.75,86,100,11.5,NO,1685056521
172,bardai,11.65,7.2333,77.5,65,23,10.36,NG,1685056521
173,mariental,-24.6333,17.9667,48.24,77,0,11.14,NA,1685056522
174,jamestown,42.097,-79.2353,59.52,52,0,9.22,US,1685056200
175,vondrozo,-22.8167,47.2833,59.29,96,95,0.96,MG,1685056522
176,charters towers,-20.1,146.2667,67.1,65,53,3.4,AU,1685056522
177,taksimo,56.3444,114.8794,39.36,94,100,2.21,RU,1685056523
178,kalmunai,7.4167,81.8167,79.9,84,1,2.68,LK,1685056523
179,uturoa,-16.7333,-151.4333,81.37,77,34,12.1,PF,1685056177
180,nueve de julio,-35.4444,-60.8831,65.97,99,100,8.01,AR,1685056523
181,belel,7.05,14.4333,62.58,92,100,2.95,CM,1685056524
182,ambon,-3.6954,128.1814,84.34,74,40,6.91,ID,1685056370
183,polyarnyy,69.1989,33.4478,46.18,59,6,8.1,RU,1685056322
184,preobrazheniye,42.9019,133.9064,53.96,82,100,2.53,RU,1685056524
185,touros,-5.1989,-35.4608,78.51,85,82,13.04,BR,1685056104
186,karratha,-20.7377,116.8463,66.47,27,12,19.28,AU,1685056217
187,lubang,13.8584,120.124,83.64,73,99,7.9,PH,1685056525
188,flin flon,54.7682,-101.865,55.33,97,100,6.71,CA,1685056256
189,college,64.8569,-147.8028,73.09,32,75,3.44,US,1685056291
190,shelby,35.2001,-89.8668,84.02,48,0,5.75,US,1685056226
191,hotan,37.0997,79.9269,62.55,45,95,1.23,CN,1685056525
192,homer,59.6425,-151.5483,48.07,88,100,5.75,US,1685056302
193,arica,-18.475,-70.3042,68.23,73,100,9.22,CL,1685056526
194,howrah,22.5892,88.3103,77.0,83,75,3.44,IN,1685056288
195,obo,5.3998,26.4869,76.66,61,61,3.09,CF,1685056527
196,les anglais,18.3054,-74.2197,81.46,78,5,8.01,HT,1685056527
197,winchester,51.0651,-1.3187,55.69,72,0,6.91,GB,1685056272
198,abancay,-13.6339,-72.8814,61.12,74,89,4.43,PE,1685056527
199,tvoroyri,61.5556,-6.8111,46.15,86,49,21.21,FO,1685056209
200,uray,60.1247,64.7758,54.28,73,5,6.69,RU,1685056344
201,steamboat springs,40.485,-106.8317,73.94,29,40,10.36,US,1685056528
202,mili,6.0815,171.735,83.68,76,18,17.63,MH,1685056528
203,chegdomyn,51.1167,133.0167,58.23,79,100,6.89,RU,1685056528
204,ola,59.5833,151.2833,50.14,88,98,2.48,RU,1685056205
205,phan rang-thap cham,11.5667,108.9833,78.51,83,98,3.58,VN,1685056529
206,yaren,-0.5472,166.916,83.39,68,56,2.37,NR,1685056230
207,tabuk,17.4189,121.4443,77.72,87,40,2.48,PH,1685056529
208,prince rupert,54.3161,-130.3201,59.68,70,95,3.47,CA,1685056176
209,yarmouth,41.7057,-70.2286,61.27,59,0,5.75,US,1685056529
210,kolonia town,6.964,158.206,84.31,84,75,6.91,FM,1685056328
211,thompson,55.7435,-97.8558,55.65,98,100,3.38,CA,1685056205
212,port lincoln,-34.7333,135.8667,55.13,65,99,12.08,AU,1685056530
213,tura,25.5198,90.2201,68.94,95,99,3.87,IN,1685056232
214,farim,12.4839,-15.2217,82.69,63,100,12.01,GW,1685056530
215,tolanaro,-25.0319,46.9987,68.74,76,96,8.66,MG,1685056189
216,palmer,42.1584,-72.3287,64.62,42,20,12.66,US,1685056531
217,las tablas,7.7667,-80.2833,79.18,99,94,6.35,PA,1685056215
218,ancud,-41.8697,-73.8203,44.58,79,90,8.81,CL,1685056245
219,orange,33.7,-117.7675,74.86,69,75,4.61,US,1685056531
220,keflavik,64.0049,-22.5624,43.23,81,75,16.11,IS,1685056182
221,paita,-5.0892,-81.1144,77.02,75,43,20.87,PE,1685056532
222,codrington,-38.2667,141.9667,52.11,68,100,14.52,AU,1685056101
223,fortaleza,-3.7227,-38.5247,81.21,94,75,16.11,BR,1685056419
224,poso,-1.3959,120.7524,83.34,72,98,4.36,ID,1685056532
225,zhaqsy,51.9083,67.3133,56.05,70,50,7.47,KZ,1685056533
226,east london,-33.0153,27.9116,61.34,72,99,20.07,ZA,1685056206
227,ntoum,0.3833,9.7833,76.3,96,92,1.25,GA,1685056533
228,ar rudayyif,34.3827,8.1555,62.37,57,2,11.43,TN,1685056533
229,erenhot,43.6475,111.9767,54.07,51,21,19.51,CN,1685056533
230,kone,-21.0595,164.8658,75.69,42,0,2.95,NC,1685056227
231,whakatane,-37.9585,176.9854,59.77,85,4,5.01,NZ,1685056241
232,tangalle,6.024,80.7911,79.29,88,29,11.01,LK,1685056534
233,quang ngai,15.1167,108.8,77.59,84,65,3.74,VN,1685056534
234,usinsk,65.9939,57.5281,61.74,77,16,18.28,RU,1685056211
235,lazaro cardenas,17.9583,-102.2,85.68,64,15,11.65,MX,1685056284
236,sabang,5.8933,95.3214,83.12,75,100,15.08,ID,1685056534
237,yerofey pavlovich,53.9667,121.9667,44.42,92,100,7.4,RU,1685056535
238,kailua-kona,19.6406,-155.9956,81.5,81,75,8.05,US,1685056033
239,putian,25.4394,119.0103,74.17,81,16,1.66,CN,1685056535
240,slavyanka,42.8633,131.3847,52.45,96,100,2.75,RU,1685056535
241,formby,53.5536,-3.0682,55.02,83,5,7.74,GB,1685056535
242,port saint john's,-31.6229,29.5448,68.02,76,72,4.81,ZA,1685056536
243,tuensang,26.2833,94.8333,63.57,96,47,3.0,IN,1685056536
244,brookings,44.3114,-96.7984,80.94,36,0,14.97,US,1685056305
245,puerto aysen,-45.4,-72.7,34.61,98,97,4.21,CL,1685056072
246,moapa valley,36.5805,-114.4703,90.68,16,100,24.02,US,1685056536
247,namtsy,62.7161,129.6658,47.07,47,19,6.69,RU,1685056537
248,tazovsky,67.4667,78.7,38.7,85,100,10.87,RU,1685056037
249,ngama,11.7833,17.1667,93.74,31,86,5.01,TD,1685056537
250,rawson,-43.3002,-65.1023,60.57,34,22,20.94,AR,1685056251
251,constantia,44.1833,28.65,61.7,90,56,6.42,RO,1685056175
252,mokhsogollokh,61.4681,128.9203,48.65,45,18,5.01,RU,1685056537
253,udachny,66.4167,112.4,35.46,59,99,10.02,RU,1685056186
254,happy valley-goose bay,53.3168,-60.3315,45.16,59,3,5.3,CA,1685056204
255,hithadhoo,-0.6,73.0833,83.52,69,26,9.69,MV,1685056320
256,fort mcmurray,56.7268,-111.381,65.71,48,75,4.61,CA,1685056364
257,callao,-12.0667,-77.15,75.72,60,100,13.8,PE,1685056204
258,yonan-up,37.9089,126.1611,62.92,62,90,5.75,KP,1685056539
259,east aurora,42.7678,-78.6134,59.99,39,0,1.99,US,1685056539
260,zaltan,32.947,11.8665,66.99,70,51,16.75,LY,1685056539
261,dubbo,-32.25,148.6167,50.13,87,100,17.27,AU,1685056539
262,newman,37.3138,-121.0208,81.23,43,0,13.0,US,1685056084
263,emerald,-23.5333,148.1667,62.35,60,2,2.71,AU,1685056540
264,kyren,51.6828,102.1408,37.11,63,4,1.32,RU,1685056540
265,kletskaya,49.3145,43.0584,64.11,85,29,5.61,RU,1685056540
266,redencao,-4.2258,-38.7306,74.95,94,85,2.77,BR,1685056365
267,el calafate,-50.3408,-72.2768,32.02,80,49,6.02,AR,1685056541
268,richfield,44.8833,-93.283,77.25,34,0,13.8,US,1685056541
269,dunedin,-45.8742,170.5036,62.8,45,100,5.99,NZ,1685056203
270,retreat,38.8245,-85.8533,70.75,57,22,12.19,US,1685056541
271,oranjemund,-28.55,16.4333,53.2,84,20,3.33,NA,1685056236
272,marsa alam,25.0757,34.8918,81.48,40,95,4.45,EG,1685056541
273,vorgashor,67.5833,63.95,55.87,76,96,9.37,RU,1685056072
274,jennings,38.7192,-90.2604,78.91,31,40,16.11,US,1685056399
275,wegscheid,48.6014,13.7873,51.87,90,9,5.14,DE,1685056542
276,mutoko,-17.397,32.2268,55.35,80,0,1.88,ZW,1685056542
277,praia da vitoria,38.7333,-27.0667,61.72,78,52,12.82,PT,1685056183
278,kununurra,-15.7667,128.7333,57.18,88,4,0.0,AU,1685056276
279,san antonio de pale,-1.4014,5.6325,79.21,86,99,15.99,GQ,1685056235
280,cabo san lucas,22.8909,-109.9124,88.61,30,75,8.05,MX,1685055951
281,barika,35.389,5.3658,65.79,65,38,10.56,DZ,1685056543
282,foca,38.6703,26.7566,60.64,78,41,4.81,TR,1685056543
283,portland,45.5234,-122.6762,84.81,38,20,13.8,US,1685056020
284,mana,5.6592,-53.7767,78.73,90,100,9.66,GF,1685056544
285,porto novo,6.4965,2.6036,82.22,85,81,4.76,BJ,1685056544
286,ebon,4.582,168.6964,83.89,76,79,15.7,MH,1685056291
287,boulsa,12.6675,-0.5758,92.23,38,88,11.39,BF,1685056544
288,shangrao,28.4532,117.9686,72.45,90,100,3.24,CN,1685056544
289,lapa,-25.7697,-49.7158,58.82,81,11,4.43,BR,1685056544
290,cockburn town,21.4612,-71.1419,81.43,75,12,2.59,TC,1685056545
291,aydarken,39.9443,71.3429,43.02,59,100,6.6,KG,1685056545
292,santyoku,37.4406,129.1708,64.94,64,100,4.61,KR,1685056545
293,sao joao do piaui,-8.3581,-42.2467,82.02,47,35,8.41,BR,1685056545
294,brisas de zicatela,15.8369,-97.0419,90.12,58,20,5.75,MX,1685056545
295,nikolayevsk-on-amure,53.1406,140.73,49.05,75,100,4.03,RU,1685056546
296,bure,10.7,37.0667,63.43,68,95,6.35,ET,1685056546
297,puerto baquerizo moreno,-0.9,-89.6,78.84,77,48,10.51,EC,1685056237
298,glace bay,46.1969,-59.957,41.79,96,100,11.5,CA,1685056546
299,novospasskoye,53.1468,47.7514,67.53,45,98,7.27,RU,1685056546
300,pathein,16.7833,94.7333,79.9,83,66,4.74,MM,1685056547
301,kuanda,56.3161,116.0806,39.31,98,100,3.91,RU,1685056547
302,iskateley,67.6803,53.1512,59.36,89,71,14.27,RU,1685056147
303,esmeraldas,-19.7625,-44.3139,67.06,63,38,9.98,BR,1685056394
304,kiffa,16.6166,-11.4045,87.51,41,63,6.35,MR,1685056322
305,laguna,38.421,-121.4238,81.32,49,0,16.11,US,1685056547
306,codajas,-3.8367,-62.0569,80.35,81,100,2.42,BR,1685056548
307,queenstown,-31.8976,26.8753,48.76,68,71,25.08,ZA,1685056285
308,yamada,39.4667,141.95,65.62,63,39,9.06,JP,1685056548
309,palikir - national government center,6.9248,158.1611,83.25,84,75,6.91,FM,1685056225
310,bac lieu,9.285,105.7244,81.81,80,95,8.75,VN,1685056191
311,namibe,-15.1961,12.1522,68.02,73,0,8.3,AO,1685056240
312,agaro,7.85,36.65,59.63,96,79,2.08,ET,1685056549
313,mocimboa,-11.3167,40.35,71.67,84,1,6.42,MZ,1685056549
314,tadine,-21.55,167.8833,72.91,62,7,11.72,NC,1685056549
315,westport,41.1415,-73.3579,67.08,44,0,13.8,US,1685056549
316,isiro,2.7739,27.616,66.6,94,34,1.83,CD,1685056550
317,senanga,-16.1167,23.2667,60.75,38,0,5.75,ZM,1685056283
318,mount horeb,43.0086,-89.7385,69.76,55,0,9.28,US,1685056550
319,pitimbu,-7.4706,-34.8086,77.59,76,85,12.39,BR,1685056550
320,korla,41.7597,86.1469,63.05,30,69,5.95,CN,1685056550
321,gbongan,7.4667,4.35,74.64,97,66,2.84,NG,1685056550
322,esperantina,-3.9017,-42.2336,76.84,83,49,4.63,BR,1685056551
323,barranca,-10.75,-77.7667,71.22,75,74,10.89,PE,1685056270
324,susuman,62.7833,148.1667,43.11,49,24,3.78,RU,1685056289
325,khandyga,62.6667,135.6,49.53,63,77,0.76,RU,1685056239
326,kodinsk,58.6881,99.1844,40.59,78,69,8.86,RU,1685056551
327,egilsstadir,65.2653,-14.3948,46.31,46,0,8.05,IS,1685056551
328,balkh,36.75,67.0,70.74,15,0,10.04,AF,1685056552
329,maintirano,-18.0667,44.0167,68.29,75,0,6.71,MG,1685056552
330,hassi messaoud,31.6804,6.0729,75.06,31,0,3.44,DZ,1685056552
331,greenville,35.6127,-77.3663,66.36,73,0,9.22,US,1685056552
332,mahdia,35.5047,11.0622,66.15,77,95,23.73,TN,1685056552
333,les sables-d'olonne,46.6667,-1.8333,57.99,83,3,15.46,FR,1685056553
334,aljezur,37.3191,-8.8033,61.34,90,0,7.34,PT,1685056553
335,chicoana,-25.1009,-65.5331,64.45,65,27,4.05,AR,1685056553
336,castillos,-34.1667,-53.8333,68.22,73,69,7.49,UY,1685056183
337,bamboo flat,11.7,92.7167,78.89,83,20,2.3,IN,1685056229
338,villa gesell,-37.2639,-56.973,64.06,97,100,15.03,AR,1685056553
339,nabire,-3.3667,135.4833,79.36,79,96,3.38,ID,1685056554
340,nybro,56.7446,15.9071,54.05,47,23,7.87,SE,1685056554
341,patterson,37.4716,-121.1297,78.55,43,0,2.01,US,1685056554
342,new ulm,44.3125,-94.4605,80.56,24,0,13.8,US,1685056450
343,vallenar,-28.5708,-70.7581,61.14,59,83,2.44,CL,1685056329
344,sant antoni de portmany,38.9807,1.3036,67.08,84,40,8.05,ES,1685056554
345,bridgewater,44.3835,-64.5155,56.68,67,95,14.97,CA,1685056555
346,pamplona,42.8169,-1.6432,51.98,87,75,3.44,ES,1685056396
347,altai,46.3722,96.2583,39.4,74,100,2.71,MN,1685056555
348,three points,32.0767,-111.3137,97.3,8,4,18.59,US,1685056555
349,bougouni,11.417,-7.479,83.08,58,91,6.55,ML,1685056555
350,xiongzhou,25.1167,114.3,76.95,93,48,2.3,CN,1685056308
351,okhotsk,59.3833,143.3,37.85,82,100,3.24,RU,1685056556
352,souillac,-20.5167,57.5167,73.83,84,100,15.57,MU,1685056556
353,dhidhdhoo,6.8833,73.1,83.75,74,46,10.63,MV,1685056556
354,berdigestyakh,62.0989,126.6992,44.33,46,1,7.47,RU,1685056556
355,san carlos del zulia,9.0,-71.9135,81.16,83,99,1.88,VE,1685056556
356,tindouf,27.6711,-8.1474,73.85,38,0,13.8,DZ,1685056557
357,lionel town,17.8101,-77.2406,82.27,71,11,4.59,JM,1685056557
358,bandon,51.7469,-8.7425,62.19,93,58,5.46,IE,1685056517
359,tumpat,6.1978,102.171,78.78,94,20,2.3,MY,1685056557
360,puerto francisco de orellana,-0.4667,-76.9667,75.92,89,89,0.49,EC,1685056557
361,san sebastian de la gomera,28.0916,-17.1133,68.38,72,0,1.14,ES,1685056558
362,zahedan,29.4963,60.8629,75.11,20,0,4.61,IR,1685056558
363,lyubotyn,49.95,35.9667,56.08,92,27,5.12,UA,1685056558
364,ipilan,8.8431,117.9033,81.05,76,90,0.78,PH,1685056558
365,swakopmund,-22.6833,14.5333,55.98,87,1,3.0,NA,1685056558
366,gumel,12.6279,9.3912,92.34,33,57,7.45,NG,1685056559
367,saudarkrokur,65.7461,-19.6394,42.22,70,82,6.55,IS,1685056559
368,tejen,37.3834,60.5054,73.62,16,2,2.08,TM,1685056559
369,ndende,-2.4008,11.3581,75.52,97,92,1.28,GA,1685056559
370,saldanha,-33.0117,17.9442,57.78,61,66,10.78,ZA,1685056207
371,afaahiti,-17.75,-149.2833,84.07,75,28,7.92,PF,1685056035
372,acarau,-2.8856,-40.12,78.67,84,46,9.17,BR,1685056285
373,lorengau,-2.0226,147.2712,81.01,78,100,2.95,PG,1685056158
374,tan-tan,28.438,-11.1032,64.26,81,7,6.91,MA,1685056560
375,freetown,8.484,-13.2299,80.04,82,99,2.01,SL,1685056560
376,turpan,42.9333,89.1667,76.96,23,84,7.96,CN,1685056560
377,bubaque,11.2833,-15.8333,82.15,77,100,12.48,GW,1685056238
378,port blair,11.6667,92.75,78.84,83,20,2.3,IN,1685056561
379,nemuro,43.3236,145.575,50.2,83,2,7.43,JP,1685056246
380,el kala,36.8956,8.4433,63.01,92,23,0.72,DZ,1685056561
381,la passe,45.5549,-0.8967,61.03,78,0,16.53,FR,1685056037
382,massaguet,12.4755,15.4365,91.11,38,88,7.61,TD,1685056561
383,taseyevo,57.2169,94.8978,39.74,71,70,2.57,RU,1685056561
384,tshikapa,-6.4167,20.8,76.53,64,45,1.63,CD,1685056562
385,mumford,5.2618,-0.759,80.08,85,69,6.4,GH,1685056562
386,manas,42.7275,47.6785,67.42,88,100,6.71,RU,1685056562
387,hood river,45.7054,-121.5215,81.63,32,75,5.01,US,1685056365
388,novodvinsk,64.4165,40.8122,48.78,85,62,5.53,RU,1685056562
389,la'ie,21.6477,-157.9253,84.16,63,84,11.01,US,1685056294
390,masterton,-40.9597,175.6575,60.89,70,17,9.78,NZ,1685056563
391,walvis bay,-22.9575,14.5053,56.08,80,0,16.58,NA,1685056216
392,gavrilov-yam,57.3018,39.8533,60.64,96,65,5.01,RU,1685056563
393,lompoc,34.6391,-120.4579,73.02,70,35,15.99,US,1685056080
394,kalinkavichy,52.1323,29.3257,56.32,70,28,2.64,BY,1685056564
395,tadmur,34.5608,38.2805,70.23,39,1,5.12,SY,1685056381
396,jati,24.3539,68.2671,82.56,84,59,22.17,PK,1685056564
397,kirensk,57.7853,108.1119,38.68,94,100,4.12,RU,1685056139
398,kindia,10.0569,-12.8658,69.89,94,100,1.95,GN,1685056238
399,al bawiti,28.3492,28.8659,81.81,23,100,11.74,EG,1685056276
400,enewetak,11.3474,162.3373,82.27,77,97,15.43,MH,1685056064
401,aoulef,26.9667,1.0833,83.59,9,19,7.52,DZ,1685056565
402,st. john's,47.5649,-52.7093,40.68,94,100,8.05,CA,1685055927
403,kondrovo,54.8064,35.9278,52.29,89,21,3.8,RU,1685056565
404,mandalgovi,45.7625,106.2708,44.65,57,83,5.64,MN,1685056565
405,yima,34.7381,111.8839,64.98,74,99,1.81,CN,1685056302
406,robore,-18.3333,-59.75,80.31,56,11,7.43,BO,1685056566
407,aykhal,66.0,111.5,30.76,81,97,9.42,RU,1685056049
408,veraval,20.9,70.3667,83.44,75,2,17.74,IN,1685056566
409,remire-montjoly,4.9167,-52.2667,75.24,100,20,2.3,GF,1685056177
410,tulun,54.5611,100.5792,40.19,71,100,12.21,RU,1685056572
411,newport,51.5877,-2.9984,60.62,87,25,6.78,GB,1685056365
412,houma,29.5958,-90.7195,84.2,66,86,6.51,US,1685056479
413,luckeesarai,25.1833,86.0833,78.58,69,1,3.91,IN,1685056572
414,jayapura,-2.5333,140.7,83.59,86,90,4.56,ID,1685056120
415,hadibu,12.65,54.0333,84.24,72,1,6.35,YE,1685056253
416,nha trang,12.25,109.1833,77.0,81,89,4.0,VN,1685056355
417,north bay,46.3168,-79.4663,62.62,37,20,8.05,CA,1685056573
418,kavieng,-2.5744,150.7967,82.51,75,41,1.57,PG,1685056573
419,melekeok village,7.4957,134.6367,79.36,94,100,12.66,PW,1685056573
420,tezu,27.9167,96.1667,69.66,96,85,3.69,IN,1685056574
421,xianshuigu,38.985,117.3828,68.0,77,100,4.47,CN,1685056574
422,naze,28.3667,129.4833,72.52,70,90,9.62,JP,1685056574
423,gadzhiyevo,69.2551,33.3362,46.06,56,8,9.19,RU,1685056295
424,kerimaki,61.9167,29.2833,42.75,81,0,4.61,FI,1685056574
425,vanino,49.0869,140.2543,56.88,63,100,4.14,RU,1685056302
426,mil'kovo,55.6078,37.7956,58.05,91,51,5.5,RU,1685056575
427,taulaga,-11.0553,-171.0883,82.22,76,84,9.8,AS,1685056575
428,ad dawadimi,24.5077,44.3924,72.75,29,23,6.98,SA,1685056575
429,lamba,6.3597,124.8122,76.87,89,93,1.16,PH,1685056575
430,nagqu,31.5,92.0,36.55,67,100,9.62,CN,1685056576
431,sola,-13.8833,167.55,79.41,65,100,17.87,VU,1685056576
432,gamba,-2.65,10.0,76.5,94,100,6.15,GA,1685056576
433,knyaze-volkonskoye,48.4642,135.4567,64.74,51,100,13.69,RU,1685056576
434,hovd,48.0056,91.6419,41.88,84,100,4.43,MN,1685056576
435,banda aceh,5.5577,95.3222,80.78,79,96,10.18,ID,1685056577
436,lupane,-18.9315,27.807,57.22,62,0,5.14,ZW,1685056577
437,zavetnoye,47.1194,43.8903,68.52,76,90,7.45,RU,1685056577
438,santo domingo,18.5001,-69.9886,84.04,83,40,5.75,DO,1685056438
439,ciudad de chiautla de tapia,18.2981,-98.6053,94.01,27,24,6.58,MX,1685056577
440,kitimat,54.0524,-128.6534,79.18,45,48,8.01,CA,1685056578
441,kertih,4.5141,103.4483,78.82,94,40,1.14,MY,1685056578
442,monte patria,-30.6919,-70.9467,63.72,56,100,3.85,CL,1685056553
443,galeana,24.8333,-100.0667,71.17,64,52,9.89,MX,1685056578
444,warrnambool,-38.3833,142.4833,53.04,66,97,15.73,AU,1685056578
445,oundle,52.4809,-0.4673,53.69,81,4,5.75,GB,1685056579
446,malango,-2.9627,119.9001,68.67,97,89,1.23,ID,1685056176
447,santa cruz,-17.8,-63.1667,78.85,78,20,14.97,BO,1685056088
448,pacific grove,36.6177,-121.9166,61.43,74,100,12.66,US,1685056052
449,sitka,57.0531,-135.33,55.29,88,100,5.75,US,1685056176
450,guerrero negro,27.9769,-114.0611,66.09,59,94,19.44,MX,1685056193
451,flying fish cove,-10.4217,105.6791,78.48,83,100,12.66,CX,1685056035
452,tabou,4.423,-7.3528,79.63,86,100,6.76,CI,1685056580
453,aasiaat,68.7098,-52.8699,29.84,86,4,7.16,GL,1685056249
454,vel'sk,61.0701,42.0983,57.67,98,99,4.68,RU,1685056580
455,kismayo,-0.3582,42.5454,79.57,77,7,13.85,SO,1685056581
456,andergrove,-21.0833,149.1833,73.65,71,82,7.83,AU,1685056184
457,fale old settlement,-9.3852,-171.2468,83.23,74,16,10.96,TK,1685056300
458,whitecourt,54.1502,-115.6855,67.24,37,75,4.61,CA,1685056581
459,barh,25.4833,85.7167,79.02,67,1,5.91,IN,1685056581
460,port moresby,-9.4431,147.1797,76.42,94,75,6.91,PG,1685056581
461,oodweyne,9.4092,45.064,72.55,79,100,5.14,SO,1685056582
462,behbahan,30.5959,50.2417,84.38,33,45,0.69,IR,1685056582
463,missoula,47.0166,-113.8009,57.6,67,100,5.46,US,1685056535
464,darbhanga,26.1667,85.9,74.64,78,7,5.97,IN,1685056582
465,northam,51.0333,-4.2167,57.61,88,7,3.0,GB,1685056317
466,santana,-0.0583,-51.1817,78.98,100,75,13.8,BR,1685056583
467,karsun,54.1994,46.9827,64.76,67,99,5.93,RU,1685056583
468,ghat,24.9647,10.1728,83.55,13,92,1.57,LY,1685056210
469,kirov,58.5966,49.6601,64.81,70,55,9.37,RU,1685056302
470,jijel,36.8205,5.7667,62.55,88,20,2.3,DZ,1685056583
471,urambo,-5.0667,32.05,69.69,61,54,5.26,TZ,1685056584
472,hillvue,-31.1244,150.915,53.51,58,100,3.44,AU,1685056584
473,anar darah,32.7587,61.654,74.86,15,44,9.95,AF,1685056227
474,prabuty,53.755,19.2055,53.04,83,59,4.0,PL,1685056584
475,nadym,65.5333,72.5167,52.65,55,99,13.6,RU,1685056584
476,na klang,17.3072,102.1889,77.61,85,92,1.74,TH,1685056585
477,loreto,22.2667,-101.9667,84.36,12,69,6.76,MX,1685056585
478,saint-joseph,-21.3667,55.6167,70.18,83,100,13.09,RE,1685056585
479,tazacorte,28.629,-17.9293,67.17,80,100,5.75,ES,1685056585
480,antsiranana,-12.2787,49.2917,71.69,92,3,6.06,MG,1685056192
481,jiaozuo,35.2397,113.2331,68.38,61,92,7.58,CN,1685056585
482,vimmerby,57.6659,15.8552,45.39,54,27,6.42,SE,1685056586
483,ducheng,23.2373,111.5317,78.01,94,39,3.58,CN,1685056586
484,lata,40.1629,-8.3327,56.39,95,3,2.8,PT,1685056586
485,howard springs,-12.497,131.047,69.82,61,30,5.77,AU,1685056237
486,kulunda,52.566,78.9385,53.91,43,100,10.47,RU,1685056587
487,as saffaniyah,27.9708,48.73,82.27,61,0,4.14,SA,1685056587
488,hau-ri,41.2006,129.4703,65.88,54,84,1.86,KP,1685056587
489,kourou,5.1552,-52.6478,75.25,92,100,7.27,GF,1685056587
490,levuka,50.1834,-105.4011,69.62,82,100,12.66,CA,1685056588
491,popayan,2.4382,-76.6132,64.24,95,79,0.16,CO,1685056588
492,tralee,52.2704,-9.7026,52.63,96,12,2.84,IE,1685056290
493,kidal,18.4411,1.4078,92.44,17,5,18.19,ML,1685056588
494,dem'yanovo,60.3511,47.0842,63.09,80,45,9.44,RU,1685056588
495,ta`u,-14.2336,-169.5144,81.82,74,31,11.63,AS,1685056589
496,tsiombe,-25.3,45.4833,66.97,72,2,10.65,MG,1685056063
497,champerico,14.3,-91.9167,86.54,67,34,11.52,GT,1685056589
498,bodo,67.28,14.405,40.77,85,75,26.46,NO,1685056589
499,karnal,29.6833,76.9833,81.93,57,61,6.17,IN,1685056589
500,korem,12.5058,39.5228,57.24,79,54,2.24,ET,1685056590
501,hasaki,35.7333,140.8333,68.4,62,51,12.3,JP,1685056098
502,puerto ayacucho,5.6639,-67.6236,75.09,95,100,4.79,VE,1685056590
503,bryne,58.7354,5.6477,48.97,89,75,16.11,NO,1685056590
504,kiunga,-6.1219,141.2906,72.01,99,100,1.43,PG,1685056590
505,vernon,50.2581,-119.2691,75.11,43,100,1.99,CA,1685056248
506,two rivers,44.1539,-87.5693,61.05,39,0,9.22,US,1685056591
507,rundu,-17.9333,19.7667,60.73,41,3,1.72,NA,1685056591
508,caleta de carquin,-11.0925,-77.6267,72.09,77,46,12.64,PE,1685056591
509,tamandare,-8.7597,-35.1047,77.58,83,29,8.66,BR,1685056591
510,rayon,19.1444,-99.5836,75.07,54,90,0.98,MX,1685056592
511,kingston,17.997,-76.7936,86.22,79,0,1.99,JM,1685056117
512,moquegua,-17.1956,-70.9353,65.41,53,43,3.56,PE,1685056528
513,zhanaozen,43.3,52.8,73.96,25,98,22.97,KZ,1685056592
514,holualoa,19.6228,-155.9522,77.77,80,75,8.05,US,1685056100
515,tofol,5.3248,163.0078,82.58,78,84,10.16,FM,1685056314
516,merowe,18.4833,31.8167,95.81,13,2,13.29,SD,1685056594
517,as sulayyil,20.4607,45.5779,86.25,26,99,5.5,SA,1685056594
518,chokwe,-24.5333,32.9833,69.42,73,36,10.04,MZ,1685056594
519,margate,51.3813,1.3862,51.87,76,13,10.0,GB,1685056337
520,san luis de la loma,17.2706,-100.8939,87.13,59,26,8.1,MX,1685056230
521,shuangjiang,26.1547,109.7138,71.06,92,27,4.34,CN,1685056412
522,coahuayana de hidalgo,18.7,-103.6583,87.96,54,94,6.2,MX,1685056175
523,prado,-17.3411,-39.2208,72.27,89,22,8.63,BR,1685056220
524,slatina,44.4333,24.3667,63.46,85,58,3.74,RO,1685056595
525,posto fiscal rolim de moura,-13.0833,-62.2667,80.01,73,98,1.36,BR,1685056595
526,smithers,54.7804,-127.1743,78.01,29,17,3.18,CA,1685056161
527,san borja,-14.8167,-66.85,75.29,92,26,2.66,BO,1685056595
528,soc trang,9.6033,105.98,80.24,83,95,4.47,VN,1685056596
529,mocajuba,-2.5842,-49.5072,77.85,85,93,2.3,BR,1685056596
530,belyy yar,53.6039,91.3903,44.49,45,0,0.0,RU,1685056050
531,deqen,29.9618,90.7188,43.09,77,43,6.67,CN,1685056596
532,mamuju,-2.6748,118.8885,79.45,82,99,3.76,ID,1685056596
533,lichinga,-13.3128,35.2406,55.47,70,0,2.91,MZ,1685056597
534,boa vista,2.8197,-60.6733,78.78,94,40,3.44,BR,1685056203
535,fort bragg,35.139,-79.006,71.15,66,100,16.11,US,1685056312
536,katsuren-haebaru,26.3369,127.8719,75.22,78,26,11.16,JP,1685056194
537,nueva gerona,21.8833,-82.8,82.67,62,15,15.12,CU,1685056597
538,kharan,28.5833,65.4167,81.63,11,6,3.36,PK,1685056598
539,yatou,37.15,122.3833,64.04,80,59,7.49,CN,1685056598
540,vadso,70.0744,29.7487,43.68,70,75,6.91,NO,1685056228
541,quepos,9.4236,-84.1652,82.6,79,93,6.06,CR,1685056277
542,disa,24.25,72.1667,82.02,73,26,12.1,IN,1685056598
543,nasarawa,8.5294,7.7242,79.2,85,100,1.54,NG,1685056598
544,pechora,65.1472,57.2244,61.23,83,42,10.42,RU,1685056599
545,crane,31.3974,-102.3501,85.14,44,57,16.24,US,1685056248
546,puerto madryn,-42.7692,-65.0385,57.69,37,4,15.3,AR,1685056599
547,desarmes,18.9917,-72.3889,87.39,70,33,4.65,HT,1685056599
548,chipinge,-20.1883,32.6236,55.76,86,26,3.96,ZW,1685056599
549,mwanza,-2.5167,32.9,72.7,57,37,4.09,TZ,1685056600
550,revda,56.801,59.9303,56.68,66,22,2.08,RU,1685056600
551,minas de marcona,-15.2119,-75.1103,60.28,80,14,11.88,PE,1685056216
552,bahia de caraquez,-0.6,-80.4167,78.66,83,70,12.39,EC,1685056600
553,bayganin,48.6947,55.8742,64.96,36,0,9.31,KZ,1685056600
554,awjilah,29.1081,21.2869,78.87,32,73,13.85,LY,1685056600
555,zhaogezhuang,39.7667,118.4,65.71,61,56,4.18,CN,1685056601
556,heniches'k,46.1759,34.8034,62.46,86,33,3.91,UA,1685056601
557,sainte-suzanne,-20.9061,55.6089,71.82,94,75,16.11,RE,1685056601
558,chahuites,16.2833,-94.1833,87.8,63,81,3.51,MX,1685056601
559,shanhecun,44.7,127.2,63.43,54,82,20.85,CN,1685056602
560,humaita,-7.5061,-63.0208,75.7,97,100,3.42,BR,1685056602
561,bereket,39.2446,55.5154,82.56,12,93,21.45,TM,1685056602
562,san antonio oeste,-40.7319,-64.9477,59.29,39,100,19.46,AR,1685056602
563,port antonio,18.18,-76.4612,85.95,71,10,4.43,JM,1685056602
564,n'zeto,-7.2312,12.8666,75.02,90,71,7.05,AO,1685056603
565,haimen,23.1935,116.6142,76.89,91,37,5.88,CN,1685056603
566,bonthe,7.5264,-12.505,81.03,82,100,5.57,SL,1685056603
567,abay,49.6311,72.8539,53.98,71,93,4.21,KZ,1685056603
568,camarillo,34.2164,-119.0376,68.81,67,100,11.5,US,1685056544
569,eha amufu,6.6592,7.7596,78.26,86,90,4.23,NG,1685056603
570,junin de los andes,-39.9504,-71.0694,38.75,89,85,13.82,AR,1685056604
571,aioun,16.6614,-9.6149,88.29,34,97,5.91,MR,1685056604
572,cascais,38.6979,-9.4215,68.05,70,1,15.01,PT,1685056080
